{"game_id": 3, "prompt_player_a": "You are a customer who wants to make a booking.\n\nYou want to book an attraction. The assistant is helping you with that task and will suggest suitable options to you.\n\nYou need an attraction to be:\n{'area': 'centre', 'type': 'nightclub'}\n\nMake sure to get:\n['address', 'openhours', 'name']\n\nKeep the dialogue and the way you give and ask for information as natural as possible.\nMake sure to never use any markup and only respond in natural language!\n\nOnce you have received all information which is relevant, choose one option and include its id in your utterance. If you are content with the answer provided and it fits all your requirements, add the string FULFILLED to your final answer.\n", "prompt_player_b": "You are an assistant who is assisting someone with making a booking.\n\nMake sure that you provide them with all relevant information.\nIn case you need some more information, ask them.\nSuggest one option which fits the request.\nYou will find the relevant data below. Stick to the information given and do not invent anything which is not in the data. Important: Be sure to always include the id of the item you suggest!\nKeep the dialogue and the way you give and ask for information as natural as possible.\nAnswer in natural language only, do not use any markup. Be sure to always end your sentences with a closing punctuation mark.\n\nRelevant data: [{'address': 'wheeler street', 'area': 'centre', 'entrance fee': '?', 'id': '66', 'location': [52.20431, 0.119215], 'name': 'the cambridge corn exchange', 'openhours': '?', 'phone': '01223357851', 'postcode': 'cb23qe', 'pricerange': '?', 'type': 'theatre'}, {'address': \"saint andrew's street\", 'area': 'centre', 'entrance fee': 'free', 'id': '27', 'location': [52.203572, 0.123778], 'name': 'emmanuel college', 'openhours': 'it opens normally daily from 9 a.m. to 5 p.m. except easter term', 'phone': '01223334200', 'postcode': 'cb23ap', 'pricerange': 'free', 'type': 'college'}, {'address': \"king's parade\", 'area': 'centre', 'entrance fee': 'free', 'id': '58', 'location': [52.202839, 0.116394], 'name': \"saint catharine's college\", 'openhours': 'it opens normally daily from 9 a.m. to 5 p.m. except easter term', 'phone': '01223338300', 'postcode': 'cb21rl', 'pricerange': 'free', 'type': 'college'}, {'address': 'the old pumping station, cheddars lane', 'area': 'east', 'entrance fee': '5 pounds', 'id': '14', 'location': [52.21247, 0.15619], 'name': 'cambridge museum of technology', 'openhours': 'it opens on sunday from 2:00 p.m. to 5:00 p.m.', 'phone': '01223368650', 'postcode': 'cb58ld', 'pricerange': 'expensive', 'type': 'museum'}, {'address': \"king's parade\", 'area': 'centre', 'entrance fee': '2 pounds', 'id': '25', 'location': [52.2028416666667, 0.117844444444444], 'name': 'corpus christi', 'openhours': 'it opens normally daily from 9 a.m. to 5 p.m. except easter term', 'phone': '01223338000', 'postcode': 'cb21rh', 'pricerange': 'cheap', 'type': 'college'}, {'address': 'the grafton centre, east road', 'area': 'centre', 'entrance fee': '?', 'id': '75', 'location': [52.20571, 0.131061], 'name': 'vue cinema', 'openhours': '?', 'phone': '08712240240', 'postcode': 'cb11ps', 'pricerange': '?', 'type': 'cinema'}, {'address': '10 king s parade', 'area': 'centre', 'entrance fee': 'free', 'id': '52', 'location': [52.2034781571435, 0.119176917855308], 'name': 'primavera', 'openhours': 'it opens from 11:00 a.m. to 4:30 p.m. on sunday, from 10:00 a.m. to 5:00 p.m. from monday to friday, and from 10:00 a.m. to 5:30 p.m. on saturday', 'phone': '01223357708', 'postcode': 'cb21sj', 'pricerange': 'free', 'type': 'museum'}, {'address': 'trumpington street', 'area': 'centre', 'entrance fee': 'free', 'id': '70', 'location': [52.19855, 0.121785], 'name': 'the fitzwilliam museum', 'openhours': 'from tuesday to saturday it opens from 10 a.m. to 5 p.m. while on sunday, monday and bank holidays it opens from 12 to 5 p.m.', 'phone': '01223332900', 'postcode': 'cb21rb', 'pricerange': 'free', 'type': 'museum'}, {'address': 'sidney street', 'area': 'centre', 'entrance fee': 'free', 'id': '63', 'location': [52.207464, 0.121342], 'name': 'sidney sussex college', 'openhours': 'it opens daily from 9 a.m. to 5 p.m. except during easter term', 'phone': '01223338800', 'postcode': 'cb23hu', 'pricerange': 'free', 'type': 'college'}, {'address': 'castle street', 'area': 'west', 'entrance fee': 'free', 'id': '37', 'location': [52.212405, 0.113075], 'name': \"kettle's yard\", 'openhours': 'it opens from 11:30 a.m. to 5:00 p.m. tuesday to sunday', 'phone': '01223748100', 'postcode': 'cb30aq', 'pricerange': 'free', 'type': 'museum'}, {'address': 'jedburgh court, kings hedges', 'area': 'north', 'entrance fee': '?', 'id': '39', 'location': [52.23171, 0.122415], 'name': 'kings hedges learner pool', 'openhours': '?', 'phone': '01223353248', 'postcode': 'cb42xh', 'pricerange': '?', 'type': 'swimmingpool'}, {'address': \"14 king's parade\", 'area': 'south', 'entrance fee': 'free', 'id': '6', 'location': [52.1725982, 0.1112224], 'name': 'byard art', 'openhours': 'it opens from 09:30 a.m. to 5:30 p.m. from monday to saturday, and from 11:00 a.m. to 4:00 p.m. on sunday', 'phone': '01223464646', 'postcode': 'cb21sj', 'pricerange': 'free', 'type': 'museum'}, {'address': 'unit 8, viking way, bar hill', 'area': 'west', 'entrance fee': '?', 'id': '77', 'location': [52.254, 0.016478], 'name': 'whale of a time', 'openhours': 'it opens from 09:30 a.m. to 6:00 p.m. daily', 'phone': '01954781018', 'postcode': 'cb238el', 'pricerange': '?', 'type': 'entertainment'}, {'address': 'girton college, huntingdon road', 'area': 'west', 'entrance fee': 'free', 'id': '51', 'location': [52.228375, 0.0837527777777778], 'name': \"people's portraits exhibition at girton college\", 'openhours': 'it opens from 2:00 p.m. to 4:00 p.m. daily from february to july', 'phone': '01223338901', 'postcode': 'cb3ojg', 'pricerange': 'free', 'type': 'museum'}, {'address': 'free school lane', 'area': 'centre', 'entrance fee': 'free', 'id': '78', 'location': [52.203117, 0.118928], 'name': 'whipple museum of the history of science', 'openhours': 'it opens from 12:30 p.m. to 4:30 p.m. from monday to friday', 'phone': '01223330906', 'postcode': 'cb23rh', 'pricerange': 'free', 'type': 'museum'}, {'address': 'trinity street', 'area': 'centre', 'entrance fee': 'free', 'id': '30', 'location': [52.205861, 0.117972], 'name': 'gonville and caius college', 'openhours': 'it opens normally daily from 9 a.m. to 5 p.m. except easter term', 'phone': '01223332400', 'postcode': 'cb21ta', 'pricerange': 'free', 'type': 'college'}, {'address': 'anglia ruskin enterprise, east road', 'area': 'centre', 'entrance fee': '?', 'id': '44', 'location': [52.20571, 0.131061], 'name': 'mumford theatre', 'openhours': '?', 'phone': '08451962320', 'postcode': 'cb11pt', 'pricerange': '?', 'type': 'theatre'}, {'address': 'market square', 'area': 'centre', 'entrance fee': '2 pounds', 'id': '31', 'location': [52.2049472222222, 0.118222222222222], 'name': \"great saint mary's church\", 'openhours': 'it opens normally daily from 9 a.m. to 5 p.m.', 'phone': '01223350914', 'postcode': 'cb23pq', 'pricerange': 'cheap', 'type': 'architecture'}, {'address': '8 market passage', 'area': 'centre', 'entrance fee': '5 pounds', 'id': '69', 'location': [52.206144, 0.120283], 'name': 'the fez club', 'openhours': 'it opens on monday from 9 p.m. to 2 a.m.. it is closed on tuesday. from wednesday to saturday it opens from 9 p.m. to 2 a.m. and it is closed on sunday', 'phone': '01223519224', 'postcode': 'cb23hx', 'pricerange': 'moderate', 'type': 'nightclub'}, {'address': \"saint andrew's street\", 'area': 'centre', 'entrance fee': 'free', 'id': '19', 'location': [52.20635, 0.121727777777778], 'name': \"christ's college\", 'openhours': 'it opens normally daily from 9 a.m. to 5 p.m. except easter term', 'phone': '01223334900', 'postcode': 'cb23bu', 'pricerange': 'free', 'type': 'college'}]\n", "summarise_in_json": "Please create a JSON object using only the text provided below in \"TEXT TO SUMMARISE\". Use the text exactly as it is written without adding any background information.\n\nData Extraction Rules:\n- Extract only from \"TEXT TO SUMMARISE\": Do not use any other knowledge or assumptions to complete the JSON structure. Only the given text should be used to find relevant information. Do NOT use any additional data you might find in the database.\n- Separate Items: Treat each instance suggested in the text as a separate JSON item in a list.\n- Use Existing Keys Only: Only use keys provided in the example structure below. If the content does not match any key, exclude it.\n- ID/Name Requirement: If an ID or name is provided, include it as part of each JSON object. Do not create new keys or values.\n\nResponse Structure:\n- Start directly with the JSON code, adhering exactly to the format below.\n- Use double quotes for all JSON strings. Do not add comments or any additional explanation.\n- Do not use markup (```json), start directly with the json code ([{\"name\": ...}])\n\nEXAMPLE structure:\n[{'address': 'sidney street', 'area': 'centre', 'entrance fee': 'free', 'id': '63', 'location': [52.207464, 0.121342], 'name': 'sidney sussex college', 'openhours': 'it opens daily from 9 a.m. to 5 p.m. except during easter term', 'phone': '01223338800', 'postcode': 'cb23hu', 'pricerange': 'free', 'type': 'college'}, {'address': 'sidney street', 'area': 'centre', 'entrance fee': 'free', 'id': '63', 'location': [52.207464, 0.121342], 'name': 'sidney sussex college', 'openhours': 'it opens daily from 9 a.m. to 5 p.m. except during easter term', 'phone': '01223338800', 'postcode': 'cb23hu', 'pricerange': 'free', 'type': 'college'}]\n\nTEXT TO SUMMARISE:\n", "reprompt": "Try again to give a complete and relevant answer to the other player's utterance. Make sure to finish your sentences. Only provide your response in natural language.\nI'm providing you with the other player's answer again:\n", "max_turns": 10, "slots_given": {"area": "centre", "type": "nightclub"}, "slots_to_fill": ["address", "openhours", "name"], "goal": {"address": "8 market passage", "area": "centre", "entrance fee": "5 pounds", "id": "69", "location": [52.206144, 0.120283], "name": "the fez club", "openhours": "it opens on monday from 9 p.m. to 2 a.m.. it is closed on tuesday. from wednesday to saturday it opens from 9 p.m. to 2 a.m. and it is closed on sunday", "phone": "01223519224", "postcode": "cb23hx", "pricerange": "moderate", "type": "nightclub"}, "data": [{"address": "wheeler street", "area": "centre", "entrance fee": "?", "id": "66", "location": [52.20431, 0.119215], "name": "the cambridge corn exchange", "openhours": "?", "phone": "01223357851", "postcode": "cb23qe", "pricerange": "?", "type": "theatre"}, {"address": "saint andrew's street", "area": "centre", "entrance fee": "free", "id": "27", "location": [52.203572, 0.123778], "name": "emmanuel college", "openhours": "it opens normally daily from 9 a.m. to 5 p.m. except easter term", "phone": "01223334200", "postcode": "cb23ap", "pricerange": "free", "type": "college"}, {"address": "king's parade", "area": "centre", "entrance fee": "free", "id": "58", "location": [52.202839, 0.116394], "name": "saint catharine's college", "openhours": "it opens normally daily from 9 a.m. to 5 p.m. except easter term", "phone": "01223338300", "postcode": "cb21rl", "pricerange": "free", "type": "college"}, {"address": "the old pumping station, cheddars lane", "area": "east", "entrance fee": "5 pounds", "id": "14", "location": [52.21247, 0.15619], "name": "cambridge museum of technology", "openhours": "it opens on sunday from 2:00 p.m. to 5:00 p.m.", "phone": "01223368650", "postcode": "cb58ld", "pricerange": "expensive", "type": "museum"}, {"address": "king's parade", "area": "centre", "entrance fee": "2 pounds", "id": "25", "location": [52.2028416666667, 0.117844444444444], "name": "corpus christi", "openhours": "it opens normally daily from 9 a.m. to 5 p.m. except easter term", "phone": "01223338000", "postcode": "cb21rh", "pricerange": "cheap", "type": "college"}, {"address": "the grafton centre, east road", "area": "centre", "entrance fee": "?", "id": "75", "location": [52.20571, 0.131061], "name": "vue cinema", "openhours": "?", "phone": "08712240240", "postcode": "cb11ps", "pricerange": "?", "type": "cinema"}, {"address": "10 king s parade", "area": "centre", "entrance fee": "free", "id": "52", "location": [52.2034781571435, 0.119176917855308], "name": "primavera", "openhours": "it opens from 11:00 a.m. to 4:30 p.m. on sunday, from 10:00 a.m. to 5:00 p.m. from monday to friday, and from 10:00 a.m. to 5:30 p.m. on saturday", "phone": "01223357708", "postcode": "cb21sj", "pricerange": "free", "type": "museum"}, {"address": "trumpington street", "area": "centre", "entrance fee": "free", "id": "70", "location": [52.19855, 0.121785], "name": "the fitzwilliam museum", "openhours": "from tuesday to saturday it opens from 10 a.m. to 5 p.m. while on sunday, monday and bank holidays it opens from 12 to 5 p.m.", "phone": "01223332900", "postcode": "cb21rb", "pricerange": "free", "type": "museum"}, {"address": "sidney street", "area": "centre", "entrance fee": "free", "id": "63", "location": [52.207464, 0.121342], "name": "sidney sussex college", "openhours": "it opens daily from 9 a.m. to 5 p.m. except during easter term", "phone": "01223338800", "postcode": "cb23hu", "pricerange": "free", "type": "college"}, {"address": "castle street", "area": "west", "entrance fee": "free", "id": "37", "location": [52.212405, 0.113075], "name": "kettle's yard", "openhours": "it opens from 11:30 a.m. to 5:00 p.m. tuesday to sunday", "phone": "01223748100", "postcode": "cb30aq", "pricerange": "free", "type": "museum"}, {"address": "jedburgh court, kings hedges", "area": "north", "entrance fee": "?", "id": "39", "location": [52.23171, 0.122415], "name": "kings hedges learner pool", "openhours": "?", "phone": "01223353248", "postcode": "cb42xh", "pricerange": "?", "type": "swimmingpool"}, {"address": "14 king's parade", "area": "south", "entrance fee": "free", "id": "6", "location": [52.1725982, 0.1112224], "name": "byard art", "openhours": "it opens from 09:30 a.m. to 5:30 p.m. from monday to saturday, and from 11:00 a.m. to 4:00 p.m. on sunday", "phone": "01223464646", "postcode": "cb21sj", "pricerange": "free", "type": "museum"}, {"address": "unit 8, viking way, bar hill", "area": "west", "entrance fee": "?", "id": "77", "location": [52.254, 0.016478], "name": "whale of a time", "openhours": "it opens from 09:30 a.m. to 6:00 p.m. daily", "phone": "01954781018", "postcode": "cb238el", "pricerange": "?", "type": "entertainment"}, {"address": "girton college, huntingdon road", "area": "west", "entrance fee": "free", "id": "51", "location": [52.228375, 0.0837527777777778], "name": "people's portraits exhibition at girton college", "openhours": "it opens from 2:00 p.m. to 4:00 p.m. daily from february to july", "phone": "01223338901", "postcode": "cb3ojg", "pricerange": "free", "type": "museum"}, {"address": "free school lane", "area": "centre", "entrance fee": "free", "id": "78", "location": [52.203117, 0.118928], "name": "whipple museum of the history of science", "openhours": "it opens from 12:30 p.m. to 4:30 p.m. from monday to friday", "phone": "01223330906", "postcode": "cb23rh", "pricerange": "free", "type": "museum"}, {"address": "trinity street", "area": "centre", "entrance fee": "free", "id": "30", "location": [52.205861, 0.117972], "name": "gonville and caius college", "openhours": "it opens normally daily from 9 a.m. to 5 p.m. except easter term", "phone": "01223332400", "postcode": "cb21ta", "pricerange": "free", "type": "college"}, {"address": "anglia ruskin enterprise, east road", "area": "centre", "entrance fee": "?", "id": "44", "location": [52.20571, 0.131061], "name": "mumford theatre", "openhours": "?", "phone": "08451962320", "postcode": "cb11pt", "pricerange": "?", "type": "theatre"}, {"address": "market square", "area": "centre", "entrance fee": "2 pounds", "id": "31", "location": [52.2049472222222, 0.118222222222222], "name": "great saint mary's church", "openhours": "it opens normally daily from 9 a.m. to 5 p.m.", "phone": "01223350914", "postcode": "cb23pq", "pricerange": "cheap", "type": "architecture"}, {"address": "8 market passage", "area": "centre", "entrance fee": "5 pounds", "id": "69", "location": [52.206144, 0.120283], "name": "the fez club", "openhours": "it opens on monday from 9 p.m. to 2 a.m.. it is closed on tuesday. from wednesday to saturday it opens from 9 p.m. to 2 a.m. and it is closed on sunday", "phone": "01223519224", "postcode": "cb23hx", "pricerange": "moderate", "type": "nightclub"}, {"address": "saint andrew's street", "area": "centre", "entrance fee": "free", "id": "19", "location": [52.20635, 0.121727777777778], "name": "christ's college", "openhours": "it opens normally daily from 9 a.m. to 5 p.m. except easter term", "phone": "01223334900", "postcode": "cb23bu", "pricerange": "free", "type": "college"}], "reprompt_option": false}