{"game_id": 0, "prompt_player_a": "You are a customer who wants to make a booking.\n\nYou want to book an attraction. The assistant is helping you with that task and will suggest suitable options to you.\n\nYou need an attraction to be:\n{'area': 'centre', 'type': 'nightclub'}\n\nMake sure to get:\n['address', 'phone']\n\nKeep the dialogue and the way you give and ask for information as natural as possible.\nMake sure to never use any markup and only respond in natural language!\n\nOnce you have received all information which is relevant, choose one option and include its id in your utterance. If you are content with the answer provided and it fits all your requirements, add the string FULFILLED to your final answer.\n", "prompt_player_b": "You are an assistant who is assisting someone with making a booking.\n\nMake sure that you provide them with all relevant information.\nIn case you need some more information, ask them.\nSuggest one option which fits the request.\nYou will find the relevant data below. Stick to the information given and do not invent anything which is not in the data. Important: Be sure to always include the id of the item you suggest!\nKeep the dialogue and the way you give and ask for information as natural as possible.\nAnswer in natural language only, do not use any markup. Be sure to always end your sentences with a closing punctuation mark.\n\nRelevant data: [{'address': 'free school lane', 'area': 'centre', 'entrance fee': 'free', 'id': '78', 'location': [52.203117, 0.118928], 'name': 'whipple museum of the history of science', 'openhours': 'it opens from 12:30 p.m. to 4:30 p.m. from monday to friday', 'phone': '01223330906', 'postcode': 'cb23rh', 'pricerange': 'free', 'type': 'museum'}, {'address': 'market square', 'area': 'centre', 'entrance fee': '2 pounds', 'id': '31', 'location': [52.2049472222222, 0.118222222222222], 'name': \"great saint mary's church\", 'openhours': 'it opens normally daily from 9 a.m. to 5 p.m.', 'phone': '01223350914', 'postcode': 'cb23pq', 'pricerange': 'cheap', 'type': 'architecture'}, {'address': '1 wheeler street', 'area': 'centre', 'entrance fee': '5 pounds', 'id': '36', 'location': [52.204192, 0.119187], 'name': 'kambar', 'openhours': 'it opens from 10:00 p.m. to 4:00 a.m. depending on whether there is an event on or not', 'phone': '01223842725', 'postcode': 'cb23qb', 'pricerange': 'moderate', 'type': 'nightclub'}, {'address': 'wollaston road', 'area': 'centre', 'entrance fee': 'free', 'id': '33', 'location': [52.200692, 0.133253], 'name': 'hughes hall', 'openhours': 'it opens normally daily from 9 a.m. to 5 p.m. except easter term', 'phone': '01223334898', 'postcode': 'cb12ew', 'pricerange': 'free', 'type': 'college'}, {'address': 'regent street', 'area': 'centre', 'entrance fee': 'free', 'id': '26', 'location': [52.2013777777778, 0.125194444444444], 'name': 'downing college', 'openhours': 'it opens daily from 9 a.m. to 5 p.m. except during easter term', 'phone': '01223334860', 'postcode': 'cb21dq', 'pricerange': 'free', 'type': 'college'}, {'address': 'cherry hinton road', 'area': 'east', 'entrance fee': '?', 'id': '17', 'location': [52.186045, 0.157515], 'name': 'cherry hinton hall and grounds', 'openhours': '?', 'phone': '01223446104', 'postcode': 'cb18dw', 'pricerange': '?', 'type': 'entertainment'}, {'address': 'bateman street', 'area': 'centre', 'entrance fee': '4 pounds', 'id': '15', 'location': [52.19525, 0.126], 'name': 'cambridge university botanic gardens', 'openhours': 'it opens from 10:00 a.m. to 6:00 p.m. from april to september, from 10:00 a.m. to 5:00 p.m. in february march and october, and from 10:00 a.m. to 4:00 p.m. from november to january', 'phone': '01223336265', 'postcode': 'cb21jf', 'pricerange': 'moderate', 'type': 'park'}, {'address': 'cafe jello gallery, 13 magdalene street', 'area': 'west', 'entrance fee': 'free', 'id': '7', 'location': [52.221949, 0.094948], 'name': 'cafe jello gallery', 'openhours': 'it opens from 10:30 a.m. to 5:30 p.m. thursday to saturday', 'phone': '01223312112', 'postcode': 'cb30af', 'pricerange': 'free', 'type': 'museum'}, {'address': \"king's parade\", 'area': 'centre', 'entrance fee': 'free', 'id': '58', 'location': [52.202839, 0.116394], 'name': \"saint catharine's college\", 'openhours': 'it opens normally daily from 9 a.m. to 5 p.m. except easter term', 'phone': '01223338300', 'postcode': 'cb21rl', 'pricerange': 'free', 'type': 'college'}, {'address': 'jesus lane', 'area': 'centre', 'entrance fee': 'free', 'id': '3', 'location': [52.2078083333333, 0.125616666666667], 'name': 'all saints church', 'openhours': 'it opens normally daily from 9 a.m. to 5 p.m., at other times the key can be borrowed from a nearby key holder.', 'phone': '01223452587', 'postcode': 'cb58bs', 'pricerange': 'free', 'type': 'architecture'}, {'address': \"14 king's parade\", 'area': 'south', 'entrance fee': 'free', 'id': '6', 'location': [52.1725982, 0.1112224], 'name': 'byard art', 'openhours': 'it opens from 09:30 a.m. to 5:30 p.m. from monday to saturday, and from 11:00 a.m. to 4:00 p.m. on sunday', 'phone': '01223464646', 'postcode': 'cb21sj', 'pricerange': 'free', 'type': 'museum'}, {'address': \"gwydir street, no. 5 dale's brewery\", 'area': 'centre', 'entrance fee': 'free', 'id': '79', 'location': [52.2002, 0.1385], 'name': 'williams art and antiques', 'openhours': 'it opens from 11:00 a.m. to 6:00 p.m. from tuesday to friday, from 11:00 a.m. to 5:00 p.m. on saturday and sunday, and it is closed on monday', 'phone': '01223311687', 'postcode': 'cb12lj', 'pricerange': 'free', 'type': 'museum'}, {'address': '251a chesterton road', 'area': 'centre', 'entrance fee': '?', 'id': '67', 'location': [52.211939, 0.118661], 'name': 'the cambridge punter', 'openhours': '?', 'phone': '07807718591', 'postcode': 'cb41as', 'pricerange': '?', 'type': 'boat'}, {'address': 'the old pumping station, cheddars lane', 'area': 'east', 'entrance fee': '5 pounds', 'id': '14', 'location': [52.21247, 0.15619], 'name': 'cambridge museum of technology', 'openhours': 'it opens on sunday from 2:00 p.m. to 5:00 p.m.', 'phone': '01223368650', 'postcode': 'cb58ld', 'pricerange': 'expensive', 'type': 'museum'}, {'address': '39 fitzroy street', 'area': 'centre', 'entrance fee': 'free', 'id': '54', 'location': [52.206823, 0.131361], 'name': 'regency gallery', 'openhours': '?', 'phone': '01223365454', 'postcode': 'cb11er', 'pricerange': 'free', 'type': 'museum'}, {'address': 'sidney street', 'area': 'centre', 'entrance fee': 'free', 'id': '63', 'location': [52.207464, 0.121342], 'name': 'sidney sussex college', 'openhours': 'it opens daily from 9 a.m. to 5 p.m. except during easter term', 'phone': '01223338800', 'postcode': 'cb23hu', 'pricerange': 'free', 'type': 'college'}, {'address': 'park street', 'area': 'centre', 'entrance fee': '?', 'id': '2', 'location': [52.208699, 0.12006], 'name': 'adc theatre', 'openhours': '?', 'phone': '01223300085', 'postcode': 'cb58as', 'pricerange': '?', 'type': 'theatre'}, {'address': 'herschel road', 'area': 'west', 'entrance fee': 'free', 'id': '23', 'location': [52.2040527777778, 0.104480555555556], 'name': 'clare hall', 'openhours': 'it opens normally daily from 9 a.m. to 5 p.m. except easter term', 'phone': '01223332360', 'postcode': 'cb39al', 'pricerange': 'free', 'type': 'college'}, {'address': 'the plough, green end, fen ditton,', 'area': 'east', 'entrance fee': '?', 'id': '8', 'location': [52.21247, 0.15619], 'name': 'camboats', 'openhours': '?', 'phone': '01223902112', 'postcode': 'cb58sx', 'pricerange': '?', 'type': 'boat'}, {'address': 'gonville place', 'area': 'centre', 'entrance fee': '?', 'id': '49', 'location': [52.201275, 0.129935], 'name': 'parkside pools', 'openhours': '?', 'phone': '01223446100', 'postcode': 'cb11ly', 'pricerange': '?', 'type': 'swimmingpool'}]\n", "summarise_in_json": "Please create a JSON object using only the text provided below in \"TEXT TO SUMMARISE\". Use the text exactly as it is written without adding any background information.\n\nData Extraction Rules:\n- Extract only from \"TEXT TO SUMMARISE\": Do not use any other knowledge or assumptions to complete the JSON structure. Only the given text should be used to find relevant information. Do NOT use any additional data you might find in the database.\n- Separate Items: Treat each instance suggested in the text as a separate JSON item in a list.\n- Use Existing Keys Only: Only use keys provided in the example structure below. If the content does not match any key, exclude it.\n- ID/Name Requirement: If an ID or name is provided, include it as part of each JSON object. Do not create new keys or values.\n\nResponse Structure:\n- Start directly with the JSON code, adhering exactly to the format below.\n- Use double quotes for all JSON strings. Do not add comments or any additional explanation.\n- Do not use markup (```json), start directly with the json code ([{\"name\": ...}])\n\nEXAMPLE structure:\n[{'address': 'clifton way', 'area': 'south', 'entrance fee': '?', 'id': '71', 'location': [52.190325, 0.135755], 'name': 'the junction', 'openhours': '?', 'phone': '01223511511', 'postcode': 'cb17gx', 'pricerange': '?', 'type': 'theatre'}, {'address': 'clifton way', 'area': 'south', 'entrance fee': '?', 'id': '71', 'location': [52.190325, 0.135755], 'name': 'the junction', 'openhours': '?', 'phone': '01223511511', 'postcode': 'cb17gx', 'pricerange': '?', 'type': 'theatre'}]\n\nTEXT TO SUMMARISE:\n", "reprompt": "Try again to give a complete and relevant answer to the other player's utterance. Make sure to finish your sentences. Only provide your response in natural language.\nI'm providing you with the other player's answer again:\n", "max_turns": 10, "slots_given": {"area": "centre", "type": "nightclub"}, "slots_to_fill": ["address", "phone"], "goal": {"address": "1 wheeler street", "area": "centre", "entrance fee": "5 pounds", "id": "36", "location": [52.204192, 0.119187], "name": "kambar", "openhours": "it opens from 10:00 p.m. to 4:00 a.m. depending on whether there is an event on or not", "phone": "01223842725", "postcode": "cb23qb", "pricerange": "moderate", "type": "nightclub"}, "data": [{"address": "free school lane", "area": "centre", "entrance fee": "free", "id": "78", "location": [52.203117, 0.118928], "name": "whipple museum of the history of science", "openhours": "it opens from 12:30 p.m. to 4:30 p.m. from monday to friday", "phone": "01223330906", "postcode": "cb23rh", "pricerange": "free", "type": "museum"}, {"address": "market square", "area": "centre", "entrance fee": "2 pounds", "id": "31", "location": [52.2049472222222, 0.118222222222222], "name": "great saint mary's church", "openhours": "it opens normally daily from 9 a.m. to 5 p.m.", "phone": "01223350914", "postcode": "cb23pq", "pricerange": "cheap", "type": "architecture"}, {"address": "1 wheeler street", "area": "centre", "entrance fee": "5 pounds", "id": "36", "location": [52.204192, 0.119187], "name": "kambar", "openhours": "it opens from 10:00 p.m. to 4:00 a.m. depending on whether there is an event on or not", "phone": "01223842725", "postcode": "cb23qb", "pricerange": "moderate", "type": "nightclub"}, {"address": "wollaston road", "area": "centre", "entrance fee": "free", "id": "33", "location": [52.200692, 0.133253], "name": "hughes hall", "openhours": "it opens normally daily from 9 a.m. to 5 p.m. except easter term", "phone": "01223334898", "postcode": "cb12ew", "pricerange": "free", "type": "college"}, {"address": "regent street", "area": "centre", "entrance fee": "free", "id": "26", "location": [52.2013777777778, 0.125194444444444], "name": "downing college", "openhours": "it opens daily from 9 a.m. to 5 p.m. except during easter term", "phone": "01223334860", "postcode": "cb21dq", "pricerange": "free", "type": "college"}, {"address": "cherry hinton road", "area": "east", "entrance fee": "?", "id": "17", "location": [52.186045, 0.157515], "name": "cherry hinton hall and grounds", "openhours": "?", "phone": "01223446104", "postcode": "cb18dw", "pricerange": "?", "type": "entertainment"}, {"address": "bateman street", "area": "centre", "entrance fee": "4 pounds", "id": "15", "location": [52.19525, 0.126], "name": "cambridge university botanic gardens", "openhours": "it opens from 10:00 a.m. to 6:00 p.m. from april to september, from 10:00 a.m. to 5:00 p.m. in february march and october, and from 10:00 a.m. to 4:00 p.m. from november to january", "phone": "01223336265", "postcode": "cb21jf", "pricerange": "moderate", "type": "park"}, {"address": "cafe jello gallery, 13 magdalene street", "area": "west", "entrance fee": "free", "id": "7", "location": [52.221949, 0.094948], "name": "cafe jello gallery", "openhours": "it opens from 10:30 a.m. to 5:30 p.m. thursday to saturday", "phone": "01223312112", "postcode": "cb30af", "pricerange": "free", "type": "museum"}, {"address": "king's parade", "area": "centre", "entrance fee": "free", "id": "58", "location": [52.202839, 0.116394], "name": "saint catharine's college", "openhours": "it opens normally daily from 9 a.m. to 5 p.m. except easter term", "phone": "01223338300", "postcode": "cb21rl", "pricerange": "free", "type": "college"}, {"address": "jesus lane", "area": "centre", "entrance fee": "free", "id": "3", "location": [52.2078083333333, 0.125616666666667], "name": "all saints church", "openhours": "it opens normally daily from 9 a.m. to 5 p.m., at other times the key can be borrowed from a nearby key holder.", "phone": "01223452587", "postcode": "cb58bs", "pricerange": "free", "type": "architecture"}, {"address": "14 king's parade", "area": "south", "entrance fee": "free", "id": "6", "location": [52.1725982, 0.1112224], "name": "byard art", "openhours": "it opens from 09:30 a.m. to 5:30 p.m. from monday to saturday, and from 11:00 a.m. to 4:00 p.m. on sunday", "phone": "01223464646", "postcode": "cb21sj", "pricerange": "free", "type": "museum"}, {"address": "gwydir street, no. 5 dale's brewery", "area": "centre", "entrance fee": "free", "id": "79", "location": [52.2002, 0.1385], "name": "williams art and antiques", "openhours": "it opens from 11:00 a.m. to 6:00 p.m. from tuesday to friday, from 11:00 a.m. to 5:00 p.m. on saturday and sunday, and it is closed on monday", "phone": "01223311687", "postcode": "cb12lj", "pricerange": "free", "type": "museum"}, {"address": "251a chesterton road", "area": "centre", "entrance fee": "?", "id": "67", "location": [52.211939, 0.118661], "name": "the cambridge punter", "openhours": "?", "phone": "07807718591", "postcode": "cb41as", "pricerange": "?", "type": "boat"}, {"address": "the old pumping station, cheddars lane", "area": "east", "entrance fee": "5 pounds", "id": "14", "location": [52.21247, 0.15619], "name": "cambridge museum of technology", "openhours": "it opens on sunday from 2:00 p.m. to 5:00 p.m.", "phone": "01223368650", "postcode": "cb58ld", "pricerange": "expensive", "type": "museum"}, {"address": "39 fitzroy street", "area": "centre", "entrance fee": "free", "id": "54", "location": [52.206823, 0.131361], "name": "regency gallery", "openhours": "?", "phone": "01223365454", "postcode": "cb11er", "pricerange": "free", "type": "museum"}, {"address": "sidney street", "area": "centre", "entrance fee": "free", "id": "63", "location": [52.207464, 0.121342], "name": "sidney sussex college", "openhours": "it opens daily from 9 a.m. to 5 p.m. except during easter term", "phone": "01223338800", "postcode": "cb23hu", "pricerange": "free", "type": "college"}, {"address": "park street", "area": "centre", "entrance fee": "?", "id": "2", "location": [52.208699, 0.12006], "name": "adc theatre", "openhours": "?", "phone": "01223300085", "postcode": "cb58as", "pricerange": "?", "type": "theatre"}, {"address": "herschel road", "area": "west", "entrance fee": "free", "id": "23", "location": [52.2040527777778, 0.104480555555556], "name": "clare hall", "openhours": "it opens normally daily from 9 a.m. to 5 p.m. except easter term", "phone": "01223332360", "postcode": "cb39al", "pricerange": "free", "type": "college"}, {"address": "the plough, green end, fen ditton,", "area": "east", "entrance fee": "?", "id": "8", "location": [52.21247, 0.15619], "name": "camboats", "openhours": "?", "phone": "01223902112", "postcode": "cb58sx", "pricerange": "?", "type": "boat"}, {"address": "gonville place", "area": "centre", "entrance fee": "?", "id": "49", "location": [52.201275, 0.129935], "name": "parkside pools", "openhours": "?", "phone": "01223446100", "postcode": "cb11ly", "pricerange": "?", "type": "swimmingpool"}], "reprompt_option": true}